{"features": [{"geometry": {"coordinates": [-74.036218, 4.593973], "type": "Point"}, "id": 0, "properties": {"COD_LCL": "03", "NOM_LCL": "SANTA FE"}, "type": "Feature"}, {"geometry": {"coordinates": [-74.161959, 4.48246], "type": "Point"}, "id": 1, "properties": {"COD_LCL": "19", "NOM_LCL": "CIUDAD BOLIVAR"}, "type": "Feature"}, {"geometry": {"coordinates": [-74.075845, 4.763208], "type": "Point"}, "id": 2, "properties": {"COD_LCL": "11", "NOM_LCL": "SUBA"}, "type": "Feature"}, {"geometry": {"coordinates": [-74.113363, 4.566477], "type": "Point"}, "id": 3, "properties": {"COD_LCL": "18", "NOM_LCL": "RAFAEL URIBE URIBE"}, "type": "Feature"}, {"geometry": {"coordinates": [-74.073552, 4.669567], "type": "Point"}, "id": 4, "properties": {"COD_LCL": "12", "NOM_LCL": "BARRIOS UNIDOS"}, "type": "Feature"}, {"geometry": {"coordinates": [-74.152668, 4.630347], "type": "Point"}, "id": 5, "properties": {"COD_LCL": "08", "NOM_LCL": "KENNEDY"}, "type": "Feature"}, {"geometry": {"coordinates": [-74.140151, 4.678183], "type": "Point"}, "id": 6, "properties": {"COD_LCL": "09", "NOM_LCL": "FONTIBON"}, "type": "Feature"}, {"geometry": {"coordinates": [-74.113188, 4.701126], "type": "Point"}, "id": 7, "properties": {"COD_LCL": "10", "NOM_LCL": "ENGATIVA"}, "type": "Feature"}, {"geometry": {"coordinates": [-74.102842, 4.588771], "type": "Point"}, "id": 8, "properties": {"COD_LCL": "15", "NOM_LCL": "ANTONIO NARIÃ‘O"}, "type": "Feature"}, {"geometry": {"coordinates": [-74.085769, 4.641174], "type": "Point"}, "id": 9, "properties": {"COD_LCL": "13", "NOM_LCL": "TEUSAQUILLO"}, "type": "Feature"}, {"geometry": {"coordinates": [-74.122806, 4.390025], "type": "Point"}, "id": 10, "properties": {"COD_LCL": "05", "NOM_LCL": "USME"}, "type": "Feature"}, {"geometry": {"coordinates": [-74.256979, 4.036569], "type": "Point"}, "id": 11, "properties": {"COD_LCL": "20", "NOM_LCL": "SUMAPAZ"}, "type": "Feature"}, {"geometry": {"coordinates": [-74.072071, 4.596605], "type": "Point"}, "id": 12, "properties": {"COD_LCL": "17", "NOM_LCL": "CANDELARIA"}, "type": "Feature"}, {"geometry": {"coordinates": [-74.066073, 4.548749], "type": "Point"}, "id": 13, "properties": {"COD_LCL": "04", "NOM_LCL": "SAN CRISTOBAL"}, "type": "Feature"}, {"geometry": {"coordinates": [-74.036883, 4.644983], "type": "Point"}, "id": 14, "properties": {"COD_LCL": "02", "NOM_LCL": "CHAPINERO"}, "type": "Feature"}, {"geometry": {"coordinates": [-74.027825, 4.742092], "type": "Point"}, "id": 15, "properties": {"COD_LCL": "01", "NOM_LCL": "USAQUEN"}, "type": "Feature"}, {"geometry": {"coordinates": [-74.135989, 4.574841], "type": "Point"}, "id": 16, "properties": {"COD_LCL": "06", "NOM_LCL": "TUNJUELITO"}, "type": "Feature"}, {"geometry": {"coordinates": [-74.194389, 4.62178], "type": "Point"}, "id": 17, "properties": {"COD_LCL": "07", "NOM_LCL": "BOSA"}, "type": "Feature"}, {"geometry": {"coordinates": [-74.087948, 4.607156], "type": "Point"}, "id": 18, "properties": {"COD_LCL": "14", "NOM_LCL": "LOS MARTIRES"}, "type": "Feature"}, {"geometry": {"coordinates": [-74.11158, 4.616245], "type": "Point"}, "id": 19, "properties": {"COD_LCL": "16", "NOM_LCL": "PUENTE ARANDA"}, "type": "Feature"}], "type": "FeatureCollection"}